City_ID,City,Lat,Lng,Max Temp,Humidity,Cloudiness,Wind Speed,Country,Date
0,grytviken,-54.2811,-36.5092,2.4,84,100,2.69,GS,1732566300
1,invercargill,-46.4,168.35,15.01,63,44,6.26,NZ,1732566279
2,puerto ayora,-0.7393,-90.3518,24.75,79,29,3.58,EC,1732565824
3,ribeira grande,38.5167,-28.7,19.32,94,75,4.63,PT,1732565606
4,uturoa,-16.7333,-151.4333,26.67,80,95,5.4,PF,1732565867
5,isafjordur,66.0755,-23.124,-4.53,81,7,4.99,IS,1732565569
6,iqaluit,63.7506,-68.5145,-16.15,71,75,4.12,CA,1732566353
7,waitangi,-43.9535,-176.5597,16.01,89,61,3.58,NZ,1732566271
8,novo aripuana,-5.1206,-60.3797,31.31,55,98,0.48,BR,1732566355
9,massawa,15.6097,39.45,27.93,64,100,4.09,ER,1732566356
10,hermanus,-34.4187,19.2345,16.56,73,100,9.12,ZA,1732566305
11,albany,42.6001,-73.9662,8.29,53,47,0.45,US,1732566060
12,tehachapi,35.1322,-118.449,10.45,87,92,3.13,US,1732566285
13,constitucion,-35.3333,-72.4167,17.68,64,0,5.43,CL,1732566177
14,puerto natales,-51.7236,-72.4875,17.25,42,75,6.69,CL,1732566363
15,adamstown,-25.066,-130.1015,22.4,77,30,7.94,PN,1732566320
16,wailua homesteads,22.0669,-159.378,26.18,75,0,5.14,US,1732566118
17,chadron,42.8294,-102.9999,0.82,69,0,1.54,US,1732566366
18,sitka,57.0531,-135.33,3.94,60,75,3.6,US,1732565922
19,kingston,17.997,-76.7936,28.53,74,75,9.26,JM,1732565814
20,port-aux-francais,-49.35,70.2167,3.33,91,100,13.21,TF,1732566308
21,blackmans bay,-43.0167,147.3167,14.07,93,51,1.12,AU,1732566313
22,margaret river,-33.95,115.0667,11.14,64,10,4.27,AU,1732566308
23,georgetown,5.4112,100.3354,25.97,89,20,1.54,MY,1732566135
24,egilsstadir,65.2653,-14.3948,-8.05,73,0,4.63,IS,1732566376
25,tingi,-11.3,35.0333,21.78,65,94,1.12,TZ,1732566377
26,constantia,44.1833,28.65,-1.62,54,0,3.38,RO,1732565914
27,broken hill,-31.95,141.4333,22.17,70,93,3.11,AU,1732565885
28,bredasdorp,-34.5322,20.0403,16.37,67,100,8.23,ZA,1732565802
29,sydney mines,46.2367,-60.2177,7.39,84,75,3.58,CA,1732566382
30,bereznik,62.8551,42.7072,1.16,83,100,6.82,RU,1732566383
31,sao luiz gonzaga,-28.4083,-54.9608,33.28,35,100,1.33,BR,1732566384
32,edinburgh of the seven seas,-37.0676,-12.3116,13.03,70,89,5.9,SH,1732566385
33,mount gambier,-37.8333,140.7667,15.18,96,26,2.23,AU,1732566388
34,qaqortoq,60.7167,-46.0333,-11.35,75,0,1.81,GL,1732565903
35,port lincoln,-34.7333,135.8667,17.96,92,79,5.24,AU,1732565998
36,hasaki,35.7333,140.8333,13.52,53,33,0.94,JP,1732565948
37,pishin,30.5803,66.9961,10.9,39,19,1.14,PK,1732566392
38,ushuaia,-54.8,-68.3,11.81,58,40,9.26,AR,1732566076
39,anadyr,64.75,177.4833,-14.72,85,100,5.0,RU,1732566394
40,lorengau,-2.0226,147.2712,27.58,82,100,3.81,PG,1732566187
41,tauranga,-37.6861,176.1667,19.18,79,100,2.24,NZ,1732566396
42,hammerfest,70.6634,23.6821,1.25,60,75,1.03,NO,1732566398
43,cole harbour,44.6724,-63.4751,6.09,84,75,10.29,CA,1732566399
44,bilibino,68.0546,166.4372,-34.8,99,40,1.35,RU,1732566400
45,chibougamau,49.9168,-74.3659,-1.21,100,40,1.54,CA,1732565882
46,tiksi,71.6872,128.8694,-17.67,59,41,9.43,RU,1732566402
47,olonkinbyen,70.9221,-8.7187,-3.05,61,100,7.92,SJ,1732566403
48,prineville,44.2999,-120.8345,7.73,70,100,2.57,US,1732566404
49,port alfred,-33.5906,26.891,20.66,88,100,3.58,ZA,1732565920
50,cabo san lucas,22.8909,-109.9124,28.17,41,40,3.09,MX,1732566002
51,lazaro cardenas,17.9583,-102.2,28.44,66,0,4.03,MX,1732566408
52,stephenville,32.2207,-98.2023,9.07,71,100,9.26,US,1732566365
53,kruisfontein,-34.0033,24.7314,17.22,84,100,7.38,ZA,1732566410
54,kailua-kona,19.6406,-155.9956,27.38,69,20,2.57,US,1732566266
55,xudat,41.631,48.681,7.66,82,100,4.06,AZ,1732566412
56,vernon,50.2581,-119.2691,2.09,84,100,1.54,CA,1732566119
57,ancud,-41.8697,-73.8203,12.1,80,77,5.6,CL,1732566346
58,hithadhoo,-0.6,73.0833,28.28,77,100,7.09,MV,1732566415
59,qamdo,31.1667,97.2333,-5.69,22,100,1.31,CN,1732566416
60,iron river,46.0927,-88.6423,-0.02,96,100,1.35,US,1732566418
61,utrik,11.2278,169.8474,28.35,82,13,8.98,MH,1732566419
62,belmonte,-15.8631,-38.8828,24.77,71,11,5.43,BR,1732566012
63,sao felix do xingu,-6.6447,-51.995,32.18,48,89,2.52,BR,1732566421
64,port elizabeth,-33.918,25.5701,19.62,91,20,8.75,ZA,1732566139
65,ta`u,-14.2336,-169.5144,27.3,79,77,4.87,AS,1732566139
66,west island,-12.1568,96.8225,26.99,94,75,9.26,CC,1732566424
67,st. john's,47.5649,-52.7093,7.21,96,100,2.57,CA,1732566203
68,taroa,8.7058,171.2275,28.22,80,100,8.67,MH,1732566426
69,susuman,62.7833,148.1667,-36.03,96,11,0.31,RU,1732566395
70,smithers,54.7804,-127.1743,-12.82,85,75,2.06,CA,1732565889
71,london,51.5085,-0.1257,8.97,75,0,5.14,GB,1732566280
72,kampene,-3.6,26.6667,21.44,92,86,0.85,CD,1732566431
73,grand-popo,6.2804,1.8225,27.77,74,57,4.35,BJ,1732566432
74,badger,64.8,-147.5333,-6.12,89,100,1.54,US,1732566433
75,somero,60.6167,23.5333,7.79,93,100,6.65,FI,1732566434
76,alotau,-10.3069,150.4462,24.86,92,86,0.82,PG,1732566435
77,essaouira,31.5125,-9.77,21.72,46,7,2.06,MA,1732566437
78,alice springs,-23.7,133.8833,22.75,83,0,3.09,AU,1732565942
79,fengxiang,47.5833,130.8333,-4.61,94,100,6.4,CN,1732566439
80,noumea,-22.2763,166.4572,22.87,93,97,5.04,NC,1732566416
81,kodinar,20.7903,70.7031,23.12,43,100,4.53,IN,1732566441
82,umiray,15.2206,121.4111,23.64,90,48,4.37,PH,1732566442
83,ilulissat,69.2167,-51.1,-1.99,86,75,5.14,GL,1732566443
84,afaahiti,-17.75,-149.2833,24.85,84,94,6.44,PF,1732565714
85,avarua,-21.2078,-159.775,26.03,78,20,2.06,CK,1732566301
86,ponta delgada,37.7333,-25.6667,19.4,82,75,6.69,PT,1732566449
87,bayanaul,50.7889,75.6956,-10.7,93,1,2.16,KZ,1732566450
88,porto novo,6.4965,2.6036,27.9,77,13,3.66,BJ,1732566451
89,fort bragg,35.139,-79.006,22.73,42,0,3.09,US,1732566356
90,covington,39.0837,-84.5086,17.35,81,100,5.66,US,1732566453
91,kirakira,-10.4544,161.9205,28.09,79,87,1.68,SB,1732566177
92,guelmim,28.987,-10.0574,25.19,16,5,6.17,MA,1732566456
93,papatowai,-46.5619,169.4708,13.51,67,42,7.23,NZ,1732565888
94,flying fish cove,-10.4217,105.6791,27.47,78,100,1.65,CX,1732566217
95,altus,34.6381,-99.334,10.04,53,0,7.72,US,1732566459
96,savsat,41.2403,42.3611,-4.09,92,58,1.79,TR,1732566460
97,port mathurin,-19.6833,63.4167,24.61,78,9,7.62,MU,1732566461
98,aral,40.5156,81.2636,1.8,45,0,3.91,CN,1732566462
99,severo-yeniseyskiy,60.3725,93.0408,-6.53,94,98,4.41,RU,1732566463
100,bethel,41.3712,-73.414,10.68,49,14,1.34,US,1732566120
101,palora,-1.7,-77.9333,30.06,71,23,1.15,EC,1732566466
102,luderitz,-26.6481,15.1594,15.75,86,8,7.51,NA,1732566468
103,uspenskoye,44.8311,41.3927,2.4,99,100,0.15,RU,1732566469
104,lompoc,34.6391,-120.4579,18.34,69,100,6.69,US,1732566206
105,hamilton,39.1834,-84.5333,17.1,81,100,5.66,US,1732566329
106,fale old settlement,-9.3852,-171.2468,28.3,76,59,7.22,TK,1732566472
107,kodiak,57.79,-152.4072,-0.27,93,0,0.0,US,1732565901
108,ha tinh,18.3333,105.9,22.43,94,94,1.94,VN,1732566475
109,vadso,70.0744,29.7487,0.09,80,20,8.75,NO,1732566148
110,buka,40.8108,69.1986,8.56,34,20,1.75,UZ,1732566477
111,murrells inlet,33.551,-79.0414,21.14,72,0,4.63,US,1732566390
112,huarmey,-10.0681,-78.1522,22.6,73,54,5.18,PE,1732566479
113,berezovyy,51.6667,135.7,-9.15,88,100,0.74,RU,1732566277
114,tsiombe,-25.3,45.4833,24.47,88,77,6.44,MG,1732566481
115,mpika,-11.8343,31.4529,19.81,73,74,1.78,ZM,1732566483
116,zarah sharan,33.1467,68.7917,3.18,40,0,1.35,AF,1732566484
117,riosucio,5.4216,-75.7032,23.44,75,88,1.8,CO,1732566485
118,kismayo,-0.3582,42.5454,27.11,81,76,4.69,SO,1732566486
119,weno,7.4515,151.8468,28.97,89,100,3.09,FM,1732565937
120,jamestown,42.097,-79.2353,10.01,70,100,4.63,US,1732565639
121,stanley,54.868,-1.6985,6.01,80,0,6.69,GB,1732566311
122,whitehorse,60.7161,-135.0538,-13.57,71,75,7.2,CA,1732566490
123,sisimiut,66.9395,-53.6735,-0.28,87,100,14.66,GL,1732566491
124,ta'izz,13.5,44.0,17.16,84,8,3.22,YE,1732566493
125,port alberni,49.2413,-124.8028,7.18,90,79,1.34,CA,1732566494
126,igarka,67.4667,86.5833,-7.44,91,90,6.79,RU,1732566238
127,copala,16.65,-98.9833,26.86,74,51,2.9,MX,1732566497
128,longyearbyen,78.2186,15.6401,-11.09,73,100,9.77,SJ,1732566498
129,tolanaro,-25.0319,46.9987,27.04,89,40,5.14,MG,1732565934
130,college,64.8569,-147.8028,-6.07,87,100,1.54,US,1732566500
131,malango,-2.9627,119.9001,19.65,98,100,0.59,ID,1732566172
132,al 'aziziyah,32.9058,45.0616,16.42,40,84,6.99,IQ,1732566503
133,katsuren-haebaru,26.3369,127.8719,24.21,72,40,4.12,JP,1732566064
134,akureyri,65.6835,-18.0878,-12.04,72,0,4.63,IS,1732566505
135,hawaiian paradise park,19.5933,-154.9731,26.05,75,0,2.06,US,1732566506
136,masterton,-40.9597,175.6575,17.63,75,81,2.2,NZ,1732565952
137,nova sintra,14.8667,-24.7167,25.64,76,32,8.84,CV,1732566508
138,aljezur,37.3191,-8.8033,14.44,59,99,0.77,PT,1732566509
139,alvaraes,-3.2208,-64.8042,27.93,43,62,1.38,BR,1732566510
140,fort st. john,56.2499,-120.8529,-21.06,77,20,3.6,CA,1732566512
141,manbij,36.5281,37.9549,5.63,56,81,3.55,SY,1732566513
142,gereida,11.2811,25.1414,22.6,19,7,4.06,SD,1732565962
143,tazovsky,67.4667,78.7,-7.45,88,45,7.68,RU,1732566515
144,bandarbeyla,9.4942,50.8122,26.17,80,39,5.85,SO,1732566516
145,kapuskasing,49.4169,-82.4331,-0.95,100,100,1.54,CA,1732566422
146,touros,-5.1989,-35.4608,27.16,64,68,4.77,BR,1732566518
147,ornskoldsvik,63.2909,18.7153,0.53,100,100,1.03,SE,1732566519
148,talnakh,69.4865,88.3972,-6.87,96,100,4.04,RU,1732566521
149,tambura,5.6,27.4667,24.64,36,3,0.65,SS,1732566522
150,hafar al-batin,28.4328,45.9708,19.32,52,20,5.14,SA,1732566523
151,nar'yan-mar,67.6713,53.087,-1.88,94,100,14.65,RU,1732566524
152,quellon,-43.1167,-73.6167,12.16,83,96,4.35,CL,1732566525
153,narvik,68.4384,17.4272,-0.66,97,100,1.48,NO,1732566526
154,al khawr,25.7667,51.3167,23.2,65,4,2.44,QA,1732566527
155,chonchi,-42.6128,-73.8092,12.84,86,97,2.8,CL,1732566528
156,kardla,58.9978,22.7492,10.56,73,100,9.7,EE,1732566529
157,qusmuryn,52.4503,64.6311,-6.21,86,4,2.51,KZ,1732566531
158,galle,6.0367,80.217,23.88,90,100,8.31,LK,1732566533
159,zouerate,22.7187,-12.4521,27.36,12,0,3.57,MR,1732566534
160,sao jose da coroa grande,-8.8978,-35.1478,26.51,73,12,5.52,BR,1732566535
161,tucurui,-3.7661,-49.6725,31.09,54,54,2.88,BR,1732566536
162,klyuchi,52.2667,79.1667,-11.68,92,63,1.14,RU,1732566537
163,pathein,16.7833,94.7333,21.41,80,98,2.25,MM,1732566541
164,mizdah,31.4451,12.9801,12.24,72,4,2.12,LY,1732566542
165,hadibu,12.65,54.0333,25.64,71,34,3.15,YE,1732566543
166,atafu village,-8.5421,-172.5159,28.77,73,20,8.02,TK,1732566544
167,bengkulu,-3.8004,102.2655,23.51,94,100,3.4,ID,1732566545
168,thomaston,32.8882,-84.3266,22.83,59,75,5.66,US,1732566546
169,changleng,28.7,115.8167,8.91,47,35,3.51,CN,1732566547
170,san patricio,28.017,-97.5169,30.97,42,3,3.94,US,1732566548
171,robertsport,6.7533,-11.3686,26.71,82,79,4.48,LR,1732566549
172,tsetserleg,47.475,101.4542,-11.0,54,100,3.84,MN,1732566551
173,amungan,15.3652,119.9582,25.89,75,0,1.13,PH,1732566552
174,zavoronezhskoye,52.8801,40.5526,-2.2,75,2,3.13,RU,1732566553
175,ankazoabo,-22.2833,44.5167,27.64,47,6,2.1,MG,1732566554
176,shenjiamen,29.9576,122.298,11.32,71,100,13.29,CN,1732566555
177,tura,25.5198,90.2201,15.58,86,55,1.65,IN,1732566309
178,nova vicosa,-17.8919,-39.3719,24.48,61,7,4.13,BR,1732566557
179,sao vicente,-23.9631,-46.3919,25.98,61,20,3.09,BR,1732566558
180,saipan,15.1355,145.701,28.39,84,40,5.81,MP,1732566560
181,ulladulla,-35.35,150.4667,19.69,76,98,2.4,AU,1732566561
182,zaozersk,69.4005,32.4476,-3.3,84,10,9.03,RU,1732566562
183,ashta,23.0167,76.7167,16.7,44,30,2.2,IN,1732566563
184,villa del totoral,-30.8167,-63.7167,22.11,90,100,4.05,AR,1732566564
185,minas de marcona,-15.2119,-75.1103,19.46,54,60,8.02,PE,1732566565
186,caleta de carquin,-11.0925,-77.6267,21.65,76,79,5.15,PE,1732566566
187,qoryooley,1.7878,44.53,25.52,86,96,2.99,SO,1732566567
188,seoni,22.0833,79.5333,14.04,53,100,2.94,IN,1732566569
189,brookings,44.3114,-96.7984,-4.34,69,0,6.17,US,1732566571
190,thompson,55.7435,-97.8558,-11.91,85,100,5.14,CA,1732566572
191,ntungamo,-0.8833,29.65,17.63,97,93,1.14,UG,1732566573
192,vilyuchinsk,52.9306,158.4028,-3.85,73,100,5.02,RU,1732566574
193,bubaque,11.2833,-15.8333,28.78,65,0,5.18,GW,1732566575
194,almunecar,36.7339,-3.6907,17.6,80,8,2.85,ES,1732566576
195,kamyanyets,52.4001,23.81,3.77,90,51,5.42,BY,1732566577
196,yellowknife,62.456,-114.3525,-7.55,96,100,10.8,CA,1732566578
197,trincomalee,8.5711,81.2335,25.74,88,100,10.19,LK,1732566579
198,taiyuan,37.8694,112.5603,-4.08,39,0,5.0,CN,1732566581
199,bogale,16.2833,95.4,22.15,81,100,3.22,MM,1732566583
200,mermoz boabab,14.7065,-17.4758,24.88,88,0,3.09,SN,1732566584
201,iskateley,67.6803,53.1512,-1.87,94,100,14.58,RU,1732566585
202,mancio lima,-7.6142,-72.8958,30.04,66,40,4.63,BR,1732566586
203,east london,-33.0153,27.9116,22.25,84,95,8.6,ZA,1732566588
204,siwa oasis,29.2041,25.5195,14.62,51,13,3.8,EG,1732566590
205,fisterra,42.9049,-9.2629,15.1,65,78,6.99,ES,1732566591
206,shizuishan,39.2333,106.7694,-4.8,25,3,3.69,CN,1732566592
207,bardai,11.65,7.2333,20.24,24,9,3.8,NG,1732566593
208,punta arenas,-53.15,-70.9167,13.06,47,0,5.14,CL,1732566594
209,rundu,-17.9333,19.7667,23.46,59,22,2.82,NA,1732566595
210,napier,-39.4833,176.9167,19.62,62,15,1.96,NZ,1732566596
211,walvis bay,-22.9575,14.5053,16.0,81,0,5.29,NA,1732566597
212,arraial do cabo,-22.9661,-42.0278,24.98,61,0,8.23,BR,1732566489
213,pudozh,61.8099,36.5345,2.73,93,100,7.11,RU,1732566600
214,itoman,26.1247,127.6694,24.21,76,40,3.6,JP,1732566601
215,laguna,38.421,-121.4238,13.46,82,100,6.69,US,1732566602
216,pithoragarh,29.5833,80.2167,2.71,82,0,0.95,IN,1732566603
217,gloucester point,37.254,-76.4969,18.03,66,0,2.57,US,1732566604
218,vilyuysk,63.7553,121.6247,-27.06,95,100,1.96,RU,1732566605
219,nemuro,43.3236,145.575,1.9,68,8,4.78,JP,1732566606
220,longjiang,47.3303,123.1836,-6.26,93,100,6.5,CN,1732566608
221,alofi,-19.0595,-169.9187,27.94,78,75,4.63,NU,1732566609
222,lata,40.1629,-8.3327,8.84,84,96,1.3,PT,1732566610
223,pocora,10.1718,-83.6044,24.66,99,92,1.1,CR,1732566612
224,burang,30.25,81.1667,-5.52,43,0,1.35,CN,1732566613
225,lerwick,60.1545,-1.1494,7.85,85,100,12.19,GB,1732566614
226,nelson bay,-32.7167,152.15,21.11,83,13,3.13,AU,1732566615
227,bocaiuva,-17.1078,-43.815,22.01,73,100,4.18,BR,1732566616
228,dongola,19.1667,30.4833,16.33,38,2,6.0,SD,1732566618
229,pingliang,35.5392,106.6861,-4.52,37,2,0.31,CN,1732566619
230,basoko,1.2391,23.616,22.33,93,99,1.09,CD,1732566620
231,lebu,-37.6167,-73.65,14.41,90,94,4.8,CL,1732566622
232,katsuura,35.1333,140.3,12.25,65,78,2.22,JP,1732566623
233,talitsa,56.8804,60.0213,-6.17,90,57,0.97,RU,1732566624
234,alghero,40.5589,8.3181,10.05,93,0,1.03,IT,1732566625
235,port saint john's,-31.6229,29.5448,24.26,89,100,7.82,ZA,1732566626
236,vorgashor,67.5833,63.95,-5.88,89,100,10.67,RU,1732566628
237,sao raimundo nonato,-9.0153,-42.6994,22.57,93,100,0.8,BR,1732566629
238,kiruna,67.8557,20.2251,-9.49,92,100,1.54,SE,1732566630
239,loa janan,-0.583,117.095,22.71,99,90,0.55,ID,1732566631
240,tomball,30.0972,-95.6161,29.94,56,0,1.79,US,1732566485
241,lihue,21.9789,-159.3672,26.52,69,0,5.14,US,1732566633
242,puerto baquerizo moreno,-0.9,-89.6,26.55,61,20,6.69,EC,1732566607
243,sungai penuh,-2.0833,101.3833,18.56,98,100,0.9,ID,1732566635
244,ipira,-12.1583,-39.7372,24.26,74,100,6.01,BR,1732566636
245,mahina,-17.5065,-149.489,29.87,70,0,8.75,PF,1732566638
246,kiama,-34.6833,150.8667,21.25,87,81,1.34,AU,1732566639
247,yamada,39.4667,141.95,2.5,82,39,2.02,JP,1732566640
248,alo,6.5486,4.2686,26.65,83,82,3.04,NG,1732566641
249,soio,-6.1349,12.3689,26.27,87,99,2.8,AO,1732566642
250,bodo,67.28,14.405,3.02,93,75,5.66,NO,1732566643
251,enewetak,11.3474,162.3373,28.15,83,78,8.65,MH,1732566644
252,boa vista,2.8197,-60.6733,33.99,43,40,4.12,BR,1732566645
253,abqaiq,25.9371,49.6776,23.33,49,41,3.95,SA,1732566647
254,chilecito,-29.1619,-67.4974,27.97,43,93,6.49,AR,1732566648
255,awjilah,29.1081,21.2869,13.31,50,100,3.87,LY,1732566650
256,colonia,50.9333,6.95,10.54,89,20,1.54,DE,1732566479
257,mili,6.0815,171.735,28.09,79,49,6.62,MH,1732566653
258,jayapura,-2.5333,140.7,25.66,92,100,1.97,ID,1732566654
259,maba,24.6841,113.5984,12.27,78,92,2.41,CN,1732566655
260,howard springs,-12.497,131.047,25.95,95,100,1.7,AU,1732566657
261,guerrero negro,27.9769,-114.0611,22.97,51,55,4.59,MX,1732566658
262,atherton,53.5237,-2.4935,6.27,82,30,0.89,GB,1732566659
263,ola,59.5833,151.2833,-15.57,69,83,5.16,RU,1732566660
264,crane,31.3974,-102.3501,17.01,34,89,6.63,US,1732566661
265,inhambupe,-11.7844,-38.3531,23.94,81,100,4.31,BR,1732566662
266,oodweyne,9.4092,45.064,22.9,58,1,3.56,SO,1732566663
267,celso ramos,-27.6344,-51.3364,23.32,64,100,1.11,BR,1732566664
268,praia da vitoria,38.7333,-27.0667,19.14,88,20,6.49,PT,1732566407
269,holualoa,19.6228,-155.9522,25.31,72,20,2.57,US,1732566667
270,tralee,52.2704,-9.7026,5.55,75,47,2.95,IE,1732566668
271,ghanzi,-21.5667,21.7833,22.9,54,55,3.17,BW,1732566669
272,dunedin,-45.8742,170.5036,16.0,63,77,0.45,NZ,1732566571
273,villa gesell,-37.2639,-56.973,17.86,63,0,9.28,AR,1732566539
274,turbiv,49.3479,28.7212,-4.41,85,19,3.08,UA,1732566672
275,aleg,17.0481,-13.9209,31.18,11,0,4.66,MR,1732566469
276,gadzhiyevo,69.2551,33.3362,-2.24,83,25,9.03,RU,1732566674
277,fairmont,39.4851,-80.1426,14.73,74,100,0.45,US,1732566461
278,faranah,10.0404,-10.7434,22.98,34,7,0.75,GN,1732566679
279,lota,-37.0833,-73.1667,15.84,73,24,4.95,CL,1732566680
280,basco,20.4487,121.9702,26.31,82,18,6.48,PH,1732566682
281,raduzhny,62.0961,77.475,-5.78,95,100,3.93,RU,1732566683
282,terenozek,45.05,64.9833,1.79,62,0,3.91,KZ,1732566685
283,punta del este,-34.9667,-54.95,23.06,93,75,4.63,UY,1732566687
284,ust-nera,64.5667,143.2,-32.23,99,60,1.9,RU,1732566689
285,aasiaat,68.7098,-52.8699,-2.76,76,100,6.36,GL,1732566690
286,karratha,-20.7377,116.8463,26.31,56,98,5.11,AU,1732566691
287,withernsea,53.7311,0.0335,7.19,74,4,9.91,GB,1732566692
288,luanda,-8.8368,13.2343,27.0,83,20,6.17,AO,1732566693
289,dudinka,69.4058,86.1778,-4.85,91,100,8.67,RU,1732566694
290,zadonsk,52.3904,38.9261,-2.5,80,6,2.56,RU,1732566695
291,berdigestyakh,62.0989,126.6992,-33.62,100,86,0.97,RU,1732566697
292,birao,10.2849,22.7882,22.32,23,5,2.37,CF,1732566698
293,mitu,1.1983,-70.1733,30.36,52,56,0.99,CO,1732566699
294,kone,-21.0595,164.8658,26.85,72,87,1.62,NC,1732566700
295,i-n-salah,27.1935,2.4607,20.42,35,0,6.26,DZ,1732566701
296,kuloy,61.0305,42.4925,-0.25,83,100,6.89,RU,1732566702
297,dawson creek,55.7666,-120.2362,-24.2,77,0,0.0,CA,1732566703
298,uelzen,52.9667,10.5667,13.6,89,100,4.07,DE,1732566704
299,fortuna,40.5982,-124.1573,13.88,94,75,4.63,US,1732566706
300,la sarre,48.8002,-79.1996,0.02,84,100,0.74,CA,1732566707
301,nsanje,-16.92,35.262,24.09,85,5,1.49,MW,1732566708
302,dolores,-36.3132,-57.6792,24.56,49,2,9.74,AR,1732566709
303,veselyy,47.0934,40.7422,1.46,99,100,4.96,RU,1732566710
304,paramonga,-10.6667,-77.8333,20.52,81,79,4.62,PE,1732566711
305,socorro,31.6546,-106.3033,23.6,15,100,5.14,US,1732566712
306,addiet canna,11.2667,37.4833,13.62,92,97,1.98,ET,1732566713
307,kristiansund,63.1115,7.732,7.36,61,0,1.03,NO,1732566715
308,yaren,-0.5472,166.916,27.87,79,46,8.58,NR,1732566716
309,puerto aysen,-45.4,-72.7,11.09,99,100,0.92,CL,1732566717
310,bel ombre,-4.6167,55.4167,27.91,74,40,2.06,SC,1732566718
311,nyurba,63.2842,118.3319,-23.0,95,100,3.75,RU,1732566719
312,petropavlovsk-kamchatsky,53.0452,158.6483,-4.67,68,0,3.0,RU,1732566720
313,zemio,5.0314,25.1361,21.94,48,5,1.24,CF,1732566721
314,saint-pierre,-21.3393,55.4781,24.82,78,20,2.06,RE,1732566722
315,bhimunipatnam,17.8833,83.4333,20.58,77,100,3.03,IN,1732566723
316,asau,46.4333,26.4,0.02,89,0,1.9,RO,1732566725
317,fort mcmurray,56.7268,-111.381,-15.23,85,100,3.6,CA,1732566726
318,cherrapunji,25.3,91.7,9.56,76,12,2.39,IN,1732566533
319,bandon,51.7469,-8.7425,4.77,81,67,1.81,IE,1732566728
320,zambezi,-13.5432,23.1047,19.33,91,71,1.02,ZM,1732566729
321,kourou,5.1552,-52.6478,28.53,71,53,3.32,GF,1732566559
322,buala,-8.145,159.5921,28.74,75,62,2.68,SB,1732566731
323,vanimo,-2.6741,141.3028,25.57,89,100,1.88,PG,1732566732
324,maintirano,-18.0667,44.0167,26.38,75,9,4.01,MG,1732566734
325,port blair,11.6667,92.75,28.02,83,40,2.57,IN,1732566728
326,novodvinsk,64.4165,40.8122,1.86,89,100,7.13,RU,1732566737
327,firuzabad,28.8438,52.5707,14.87,62,98,1.53,IR,1732566738
328,new norfolk,-42.7826,147.0587,14.28,70,53,0.7,AU,1732566739
329,ciales,18.3361,-66.4688,30.27,82,98,3.37,PR,1732566740
330,acapulco de juarez,16.8634,-99.8901,29.9,70,20,3.09,MX,1732566725
331,cooper's town,26.8667,-77.5167,23.07,68,95,3.44,BS,1732566684
332,ban dung,17.699,103.2596,21.26,79,41,2.8,TH,1732566744
333,hafnarfjordur,64.0671,-21.9377,-7.07,68,20,1.03,IS,1732566745
334,san juan de miraflores,-12.1629,-76.9635,21.29,81,87,4.64,PE,1732566746
335,wenchang,30.904,118.4887,6.11,61,92,4.61,CN,1732566748
336,tumpat,6.1978,102.171,25.01,100,40,2.06,MY,1732566749
337,sultanpur,26.2667,82.0667,17.59,46,0,2.2,IN,1732566750
338,el nido,11.1858,119.3956,25.64,93,80,3.94,PH,1732566751
339,n'zeto,-7.2312,12.8666,26.31,86,100,2.69,AO,1732566753
340,aripuana,-9.1667,-60.6333,27.43,76,96,3.65,BR,1732566524
341,buulobarde,3.8538,45.5674,25.81,79,56,5.1,SO,1732566755
342,udachny,66.4167,112.4,-20.22,94,100,8.86,RU,1732566756
343,mecca,21.4267,39.8261,24.5,69,0,1.66,SA,1732566757
344,paoua,7.2427,16.4406,21.62,33,42,1.45,CF,1732566758
345,yuzhno-kurilsk,44.0306,145.8556,1.35,69,10,6.16,RU,1732566759
346,chauk,20.8833,94.8167,20.56,74,72,1.89,MM,1732566760
347,filadelfia,39.9523,-75.1638,14.44,53,75,3.6,US,1732566708
348,ippy,6.2679,21.2247,23.98,43,76,0.6,CF,1732566762
349,burutu,5.3509,5.5076,27.37,76,91,2.41,NG,1732566764
350,wenshui,28.4506,106.5267,5.22,95,100,0.83,CN,1732566765
351,cidade velha,14.9167,-23.6167,25.26,69,20,6.17,CV,1732566766
352,sao francisco,-15.9486,-44.8644,23.2,82,83,1.93,BR,1732566767
353,acarau,-2.8856,-40.12,26.8,72,2,6.32,BR,1732566768
354,jiexiu,37.0244,111.9125,-2.59,33,0,4.86,CN,1732566769
355,thunder bay,48.4001,-89.3168,-1.01,93,100,2.06,CA,1732566770
356,kalemie,-5.9475,29.1947,20.94,86,24,1.42,CD,1732566773
357,balkanabat,39.5108,54.3671,14.91,45,45,1.86,TM,1732566774
358,gudauta,43.1055,40.6207,9.2,83,100,6.27,GE,1732566775
359,hakkari,37.5833,44.1667,3.88,81,75,3.09,TR,1732566776
360,port moresby,-9.4431,147.1797,23.68,94,20,1.03,PG,1732566777
361,modbury,-34.8333,138.6833,22.73,79,0,4.63,AU,1732566778
362,gobabis,-22.45,18.9667,26.44,31,15,5.07,NA,1732566779
363,tazacorte,28.629,-17.9293,21.54,84,75,2.68,ES,1732566581
364,khawr fakkan,25.3313,56.342,27.03,79,0,2.51,AE,1732566781
365,obock,12.25,43.0833,21.0,77,8,6.75,DJ,1732566783
366,lekki,6.3607,4.8333,25.23,87,90,0.5,NG,1732566784
367,colonia menno,-22.3667,-59.8167,39.62,25,48,6.22,PY,1732566785
368,geraldton,-28.7667,114.6,12.23,76,0,7.47,AU,1732566786
369,horta,38.5333,-28.6333,18.9,92,75,4.63,PT,1732566787
370,sao tome,0.3365,6.7273,25.78,84,100,2.22,ST,1732566788
371,choibalsan,48.0667,114.5,-13.11,54,100,6.65,MN,1732566789
372,rongelap,11.1635,166.8941,28.39,82,50,8.33,MH,1732566790
373,aykhal,66.0,111.5,-22.64,97,100,12.73,RU,1732566793
374,usinsk,65.9939,57.5281,-3.52,84,100,17.13,RU,1732566794
375,tshikapa,-6.4167,20.8,21.06,96,99,1.0,CD,1732566795
376,tibanbang,6.6315,126.1055,26.58,86,90,3.85,PH,1732566796
377,san pedro pochutla,15.7333,-96.4667,29.84,63,10,2.71,MX,1732566797
378,padang,-0.9492,100.3543,26.03,86,100,2.58,ID,1732566798
379,novaya igirma,57.1334,103.9112,-11.65,95,100,2.11,RU,1732566799
380,east end,34.5507,-92.341,18.87,79,100,4.42,US,1732566801
381,aniva,46.7144,142.5294,-12.94,64,6,1.98,RU,1732566733
382,jackson,42.4165,-122.8345,8.73,82,100,2.24,US,1732566803
383,rio grande,-32.035,-52.0986,22.89,83,100,1.54,BR,1732566804
384,margate,51.3813,1.3862,7.71,78,79,7.39,GB,1732566665
385,yreka,41.7354,-122.6345,8.1,95,100,0.0,US,1732566806
386,bridgewater,44.3835,-64.5155,6.82,76,100,6.69,CA,1732566527
387,yeppoon,-23.1333,150.7333,23.83,80,51,6.39,AU,1732566808
388,semera,11.501,41.201,23.85,56,0,6.21,ET,1732566809
389,misratah,32.3754,15.0925,18.05,60,31,2.26,LY,1732566811
390,as sulayyil,20.4607,45.5779,21.58,29,0,3.58,SA,1732566812
391,kolonia,50.9333,6.95,10.54,88,20,1.54,DE,1732566813
392,suva,-18.1416,178.4415,23.71,100,75,3.09,FJ,1732566814
393,zakamensk,50.3741,103.2863,-13.14,79,100,1.76,RU,1732566815
394,jamaame,0.0697,42.745,26.28,84,65,3.07,SO,1732566816
395,tromso,69.6496,18.957,-0.99,93,75,1.54,NO,1732566712
396,thala,35.5724,8.6703,9.48,75,0,3.0,TN,1732566818
397,naze,28.3667,129.4833,22.51,69,86,8.19,JP,1732566820
398,gardelegen,52.5252,11.3952,12.18,88,100,4.77,DE,1732566822
399,sinabang,2.4803,96.3801,24.97,92,100,2.47,ID,1732566823
400,palmer,42.1584,-72.3287,9.75,42,40,4.63,US,1732566824
401,kanke,23.4333,85.3167,12.01,87,100,0.0,IN,1732566825
402,revda,56.801,59.9303,-5.28,89,54,1.11,RU,1732566826
403,gaozhou,21.9392,110.8461,20.03,86,70,3.63,CN,1732566827
404,lambarene,-0.7001,10.2406,23.43,97,100,2.32,GA,1732566829
405,ust'-ilimsk,58.0006,102.6619,-10.0,95,100,3.15,RU,1732566830
406,al wajh,26.2455,36.4525,18.97,52,0,1.54,SA,1732566831
407,amga,60.8953,131.9608,-25.47,100,99,0.43,RU,1732566832
408,prince rupert,54.3161,-130.3201,1.83,62,0,5.14,CA,1732566833
409,ulysses,37.5814,-101.3552,7.02,42,0,3.6,US,1732566834
410,praya,14.9215,-23.5087,25.3,69,20,6.17,CV,1732566836
411,arkalyk,50.2486,66.9114,-4.45,77,2,7.3,KZ,1732566838
412,mogadishu,2.0371,45.3438,26.94,84,42,5.92,SO,1732566839
413,kiffa,16.6166,-11.4045,28.76,11,0,5.11,MR,1732566840
414,san pedro del parana,-26.8333,-56.2,36.07,28,97,2.01,PY,1732566842
415,ulanhot,46.0833,122.0833,-8.51,86,100,6.28,CN,1732566843
416,douglas,41.3,-96.167,3.1,45,0,8.75,US,1732566676
417,parabel',58.6978,81.4825,-6.21,86,74,3.8,RU,1732566793
418,indian harbour beach,28.1489,-80.5884,25.59,61,0,2.57,US,1732566847
419,raja,8.4596,25.678,23.94,26,9,1.91,SS,1732566848
420,mhamid,29.82,-5.72,19.72,29,81,1.0,MA,1732566849
421,prey veng,11.4868,105.3253,23.81,80,99,2.89,KH,1732566850
422,dongyang,29.2678,120.2253,9.21,69,100,3.53,CN,1732566851
423,kavaratti,10.5669,72.642,27.99,67,89,3.34,IN,1732566852
424,shendi,16.6915,33.4341,22.71,26,1,4.97,SD,1732566853
425,mejit,10.2753,170.8646,28.26,83,60,8.33,MH,1732566854
426,el calafate,-50.3408,-72.2768,14.12,47,97,3.17,AR,1732566855
427,bam,29.106,58.357,17.76,37,28,0.09,IR,1732566857
428,tukums,56.9669,23.1553,7.64,73,100,6.89,LV,1732566858
429,bairnsdale,-37.8333,147.6167,18.36,98,100,0.45,AU,1732566859
430,kodinsk,58.6881,99.1844,-5.57,91,100,4.16,RU,1732566733
431,tofol,5.3248,163.0078,27.88,78,75,3.09,FM,1732566861
432,moundou,8.5667,16.0833,23.84,24,14,1.83,TD,1732566865
433,fasa,28.9383,53.6482,12.58,94,75,0.0,IR,1732566866
434,latakia,35.5148,35.7768,9.1,45,88,3.19,SY,1732566867
435,zhangye,38.9342,100.4517,-6.2,33,85,1.2,CN,1732566868
436,tomatlan,19.9333,-105.25,30.32,50,85,3.57,MX,1732566869
437,flin flon,54.7682,-101.865,-12.09,79,75,3.09,CA,1732566870
438,khandyga,62.6667,135.6,-31.43,99,26,0.57,RU,1732566871
439,turrialba,9.9047,-83.6835,22.97,100,100,1.27,CR,1732566606
440,lycksele,64.5954,18.6735,1.93,93,75,2.57,SE,1732566615
441,puerto leguizamo,-0.1934,-74.7819,27.68,74,96,0.88,CO,1732566875
442,alaghsas,17.0187,8.0168,22.44,24,2,6.96,NE,1732566876
443,mahibadhoo,3.7833,72.9667,27.64,74,100,2.54,MV,1732566877
444,dean funes,-30.4204,-64.3498,20.93,87,99,5.72,AR,1732566878
445,griffith,41.5284,-87.4237,12.53,76,100,6.17,US,1732566879
446,saldanha,-33.0117,17.9442,17.03,79,96,4.25,ZA,1732566880
447,chui,-33.6971,-53.4616,23.91,86,100,1.07,UY,1732566881
448,roma,43.2128,-75.4557,6.49,57,0,0.45,US,1732566843
449,kununurra,-15.7667,128.7333,25.99,94,20,2.06,AU,1732566885
450,mogocha,53.7333,119.7667,-14.75,84,100,3.46,RU,1732566886
451,tual,-5.6667,132.75,28.88,72,71,1.78,ID,1732566887
452,santiago de cao,-7.9589,-79.2392,19.07,82,40,4.12,PE,1732566888
453,pisco,-13.7,-76.2167,23.03,68,0,9.77,PE,1732566889
454,grand falls-windsor,48.9332,-55.6649,5.84,95,100,0.45,CA,1732566890
455,khabarovsk,48.4808,135.0928,-9.11,86,0,3.0,RU,1732566891
456,shingu,33.7333,135.9833,17.5,67,100,5.67,JP,1732566893
457,chitipa,-9.7024,33.2697,19.74,77,19,1.85,MW,1732566894
458,zapolyarnyy,69.4154,30.8136,-6.08,86,2,4.33,RU,1732566896
459,myeik,12.4333,98.6,25.72,82,100,2.39,MM,1732566897
460,obo,5.3998,26.4869,22.07,50,31,1.36,CF,1732566899
461,sines,37.9562,-8.8698,15.16,73,100,0.77,PT,1732566900
462,eyl,7.9803,49.8164,26.13,79,6,5.85,SO,1732566901
463,necochea,-38.5473,-58.7368,17.49,56,0,7.17,AR,1732566657
464,mar del plata,-38.0023,-57.5575,19.35,66,0,8.23,AR,1732566675
465,vuktyl,63.8567,57.3094,-4.81,87,100,8.64,RU,1732566905
466,al kharj,24.155,47.3346,24.32,33,4,5.96,SA,1732566713
467,sokolovyy,51.5686,45.8331,-2.03,91,31,3.08,RU,1732566907
468,stung treng,13.5259,105.9683,21.37,91,74,1.74,KH,1732566908
469,bikin,46.8161,134.26,-3.94,76,100,1.98,RU,1732566909
470,daru,-9.0763,143.2092,26.81,88,85,5.51,PG,1732566910
471,kamaishi,39.2667,141.8833,4.64,79,55,2.08,JP,1732566912
472,okhotsk,59.3833,143.3,-15.25,73,0,4.92,RU,1732566734
473,luba,3.4568,8.5547,26.83,80,43,3.25,GQ,1732566914
474,tarko-sale,64.9225,77.785,-8.32,91,8,6.0,RU,1732566915
475,selfoss,63.9331,-20.9971,-7.2,80,3,1.73,IS,1732566634
476,puerto wilches,7.3483,-73.896,30.78,69,47,1.36,CO,1732566917
477,dwarka,22.2394,68.9678,25.29,53,2,4.44,IN,1732566918
478,nizhneangarsk,55.7833,109.55,-20.18,83,8,3.0,RU,1732566920
479,kupang,-10.1667,123.5833,26.32,100,20,1.03,ID,1732566921
480,xiaoweizhai,26.1903,107.5125,6.63,87,100,2.38,CN,1732566922
481,onega,63.9061,38.1404,3.14,89,100,7.6,RU,1732566923
482,llaillay,-32.85,-70.9667,26.65,27,0,4.09,CL,1732566882
483,niafunke,15.9322,-3.9906,26.99,12,34,4.5,ML,1732566925
484,shimoda,34.6667,138.95,11.91,75,95,4.79,JP,1732566926
485,playa del ingles,27.7567,-15.5787,22.86,87,100,1.29,ES,1732566729
486,vokhtoga,58.8147,41.0461,-1.98,75,100,5.7,RU,1732566929
487,menzelinsk,55.7271,53.1026,-0.8,60,87,1.04,RU,1732566792
488,fauske,67.2588,15.3918,2.19,99,100,1.49,NO,1732566931
489,san julian,21.0167,-102.1667,26.08,14,82,1.64,MX,1732566932
490,kikwit,-5.041,18.8162,21.33,96,97,0.35,CD,1732566933
491,richards bay,-28.783,32.0377,24.75,73,90,7.86,ZA,1732566934
492,mlonggo,-6.5333,110.7,26.37,82,100,1.05,ID,1732566651
493,san andres,12.5847,-81.7006,28.01,94,40,3.6,CO,1732566780
494,fortaleza,-3.7227,-38.5247,29.07,65,20,4.63,BR,1732566682
495,mopti,14.6667,-4.0,28.11,12,87,3.68,ML,1732566939
496,kokhma,56.9349,41.0915,-2.06,76,63,3.7,RU,1732566940
497,mount pearl,47.5166,-52.7813,6.19,96,100,2.57,CA,1732566847
498,caska,41.6506,21.6622,5.06,50,18,1.13,MK,1732566942
499,arrifes,37.7667,-25.7,18.14,82,75,6.69,PT,1732566943
500,swakopmund,-22.6833,14.5333,15.55,83,1,3.13,NA,1732566944
501,vila velha,-20.3297,-40.2925,24.97,69,75,4.63,BR,1732566850
502,talcahuano,-36.7167,-73.1167,19.82,49,40,5.66,CL,1732566946
503,las tablas,7.7667,-80.2833,28.43,99,82,1.98,PA,1732566743
504,haiku-pauwela,20.9219,-156.3051,25.02,79,75,2.24,US,1732566949
505,torres,-29.3353,-49.7269,22.29,86,100,4.16,BR,1732566950
506,alpena,45.0617,-83.4327,5.06,96,100,5.14,US,1732566951
507,ed damer,17.5928,33.9592,21.05,33,1,5.74,SD,1732566952
508,hami,42.8,93.45,-4.24,60,0,1.35,CN,1732566953
509,paran'ga,56.7039,49.4047,-2.46,98,82,0.51,RU,1732566954
510,santa ana,33.7456,-117.8678,22.28,54,75,2.06,US,1732566956
511,trujillo,-8.116,-79.03,18.98,82,40,4.12,PE,1732566696
512,sabang,5.8933,95.3214,25.99,86,100,3.43,ID,1732566958
513,xilin hot,43.9667,116.0333,-12.91,48,38,6.0,CN,1732566959
514,popondetta,-8.7537,148.2534,24.21,90,100,1.1,PG,1732566960
515,suoyarvi,62.0833,32.35,2.67,98,100,7.53,RU,1732566793
516,camlidere,40.4896,32.475,-3.68,96,100,1.65,TR,1732566962
517,kiefersfelden,47.6141,12.191,4.95,77,0,1.98,DE,1732566963
518,pollenca,39.8768,3.0163,17.93,77,84,6.95,ES,1732566965
519,isangel,-19.55,169.2667,27.08,83,47,2.18,VU,1732566720
520,saint-philippe,-21.3585,55.7679,23.95,85,21,4.47,RE,1732566967
521,san agustin de valle fertil,-30.6335,-67.4682,29.07,41,61,8.04,AR,1732566968
522,hobyo,5.3505,48.5268,26.9,78,81,5.53,SO,1732566969
523,colac,-38.3333,143.5833,17.6,90,46,1.86,AU,1732566970
524,coquimbo,-29.9533,-71.3436,19.85,63,0,6.17,CL,1732567396
525,dobre miasto,53.9867,20.3975,8.64,65,64,7.03,PL,1732567397
526,mersing,2.4312,103.8405,24.95,94,20,1.03,MY,1732567398
527,al faw,29.9776,48.4741,22.21,79,74,4.89,IQ,1732567399
528,keflavik,64.0049,-22.5624,-3.76,74,0,3.09,IS,1732567400
529,pindare mirim,-3.6083,-45.3433,29.71,58,93,3.58,BR,1732567401
530,mount isa,-20.7333,139.5,22.87,94,40,1.54,AU,1732567402
531,ar ruways,24.1103,52.7306,24.22,70,2,3.57,AE,1732567404
532,tra vinh,9.9347,106.3453,26.21,79,100,3.76,VN,1732567405
533,silver city,32.7701,-108.2803,18.71,24,0,4.92,US,1732567406
534,coxen hole,16.3244,-86.5366,25.6,94,100,3.09,HN,1732567407
535,rio gallegos,-51.6226,-69.2181,15.03,36,0,7.72,AR,1732567408
536,baturaja,-4.1333,104.1667,23.92,98,98,0.9,ID,1732567409
537,manicore,-5.8092,-61.3003,31.24,57,86,1.65,BR,1732567410
538,ocean city,39.2776,-74.5746,13.89,58,59,3.13,US,1732567411
539,tadine,-21.55,167.8833,24.88,89,94,7.79,NC,1732567412
540,seoni malwa,22.45,77.4667,15.42,52,68,2.41,IN,1732567414
541,steinbach,50.1667,8.5667,12.73,94,20,6.17,DE,1732567415
542,oliveira dos brejinhos,-12.3169,-42.8961,22.59,86,100,1.01,BR,1732567416
543,selkirk,50.1436,-96.8845,-7.12,90,100,2.68,CA,1732567417
544,saudarkrokur,65.7461,-19.6394,-8.94,78,4,6.59,IS,1732567418
545,happy valley-goose bay,53.3168,-60.3315,4.17,87,100,4.12,CA,1732567239
546,qaryat suluq,31.6682,20.2521,16.35,51,61,3.65,LY,1732567420
547,ribeira brava,32.65,-17.0667,20.95,83,100,0.92,PT,1732567421
548,brigantine,39.4101,-74.3646,13.9,74,58,1.79,US,1732567422
549,callao,-12.0667,-77.15,22.16,73,0,6.17,PE,1732567425
550,eydhafushi,5.1033,73.0708,26.84,78,100,2.95,MV,1732567426
551,cockburn town,21.4612,-71.1419,23.98,100,75,7.2,TC,1732567427
552,changping,40.2186,116.2197,-1.96,21,0,5.14,CN,1732567428
553,harstad,68.799,16.5293,1.2,92,100,2.92,NO,1732567429
554,jianshui,23.6363,102.8264,12.17,97,52,2.04,CN,1732567430
555,gulf shores,30.246,-87.7008,26.03,62,75,5.66,US,1732567243
556,alibag,18.6411,72.8792,22.63,44,97,3.14,IN,1732567432
557,la foa,-21.7108,165.8276,24.75,77,71,1.02,NC,1732567433
558,vilhena,-12.7406,-60.1458,24.12,88,75,9.77,BR,1732567418
559,ratnagiri,16.9833,73.3,21.71,47,75,2.49,IN,1732567436
560,codrington,-38.2667,141.9667,17.02,88,3,2.96,AU,1732567437
561,madinat ash shamal,26.1293,51.2009,24.64,64,20,2.7,QA,1732567438
562,tikrit,34.6071,43.6782,11.26,40,10,3.89,IQ,1732567439
563,nagqu,31.5,92.0,-8.87,26,24,1.12,CN,1732567440
564,solnechnyy,50.7214,136.6319,-7.71,81,100,0.86,RU,1732567441
565,mayqayyng,51.4625,75.7986,-9.22,91,7,2.82,KZ,1732567442
566,brisas de zicatela,15.8369,-97.0419,29.29,79,20,2.57,MX,1732567444
567,nova olinda do norte,-3.8881,-59.0942,32.57,52,77,0.03,BR,1732567445
568,genhe,50.7833,121.5167,-11.44,94,100,2.3,CN,1732567446
569,gizo,-8.103,156.8419,28.57,74,76,1.44,SB,1732567448
570,ayacucho,-13.1583,-74.2239,20.92,46,40,4.63,PE,1732567449
571,kerikeri,-35.2268,173.9474,19.5,54,100,0.41,NZ,1732567450
572,vorkuta,67.5,64.0,-5.5,87,100,10.52,RU,1732567451
573,san antonio de pale,-1.4014,5.6325,26.13,82,100,4.38,GQ,1732567452
574,waspan,14.7419,-83.9717,27.28,80,65,3.77,NI,1732567454
575,mwinilunga,-11.7358,24.4293,17.82,96,100,1.45,ZM,1732567455
576,chegdomyn,51.1167,133.0167,-9.3,95,100,1.13,RU,1732567456
577,cullowhee,35.3137,-83.1765,19.83,62,100,4.12,US,1732567458
578,kuqa,41.7278,82.9364,-0.82,62,7,3.49,CN,1732567459
579,parvatipuram,18.7833,83.4333,17.51,86,96,2.2,IN,1732567460
580,umba,66.6871,34.3429,3.55,96,100,5.62,RU,1732567463
581,port augusta,-32.5,137.7667,23.35,67,36,0.98,AU,1732567464
582,marsh harbour,26.5412,-77.0636,24.42,62,100,3.45,BS,1732567465
583,kapa'a,22.0752,-159.319,26.93,75,0,5.14,US,1732567466
584,plouzane,48.3833,-4.6167,10.03,81,0,3.09,FR,1732567467
585,bamboo flat,11.7,92.7167,28.05,83,40,2.57,IN,1732567468
586,bayganin,48.6947,55.8742,-0.48,73,2,4.27,KZ,1732567469
587,yeed,4.55,43.0333,31.3,36,73,2.81,SO,1732567470
588,formosa do rio preto,-11.0483,-45.1931,23.04,90,89,1.74,BR,1732567471
589,ghat,24.9647,10.1728,16.87,42,0,1.42,LY,1732567473
590,hilo,19.7297,-155.09,26.73,73,0,2.06,US,1732567474
591,dubbo,-32.25,148.6167,26.07,44,95,6.17,AU,1732567475
592,qui nhon,13.7667,109.2333,22.89,93,100,3.65,VN,1732567213
593,tarakan,3.3,117.6333,25.64,83,100,1.57,ID,1732567477
594,baiti,13.745,-14.7482,29.75,15,0,1.51,SN,1732567478
